        {"type":"FeatureCollection",
        "features": [
            {
                "type": "Feature",
                "properties": {
                    "title": "Footscray Railway Station"
                },
                "geometry": {
                    "type": "Point",
                    "coordinates": [144.901841, -37.801742]
                }
            },
            {
                "type": "Feature",
                "properties": {
                    "title": "Former Footscray Drill Hall"
                },
                "geometry": {
                    "type": "Point",
                    "coordinates": [ 144.8879068255057,
                    -37.79886175901476]
                }
            },
            {
                "type": "Feature",
                "properties": {
                    "title": "Footscray Town Hall"
                },
                "geometry": {
                    "type": "Point",
                    "coordinates": [ 144.9007900556672,
                    -37.80458169998814]
                }
            },
            {
                "type": "Feature",
                "properties": {
                    "title": "Footscray Market",
                     "icon": "bar"
                },
                "geometry": {
                    "type": "Point",
                    "coordinates": [ 144.90128100516716,
                    -37.8007862591642]
                }
            },
            {
                "type": "Feature",
                "properties": {
                    "title": "Little Saigon Precinct"
                },
                "geometry": {
                    "type": "Point",
                    "coordinates": [144.89992396195782,
                    -37.79894298858636]
                }
            },
            {
                "type": "Feature",
                "properties": {
                    "title": "Whitten Oval"
                },
                "geometry": {
                    "type": "Point",
                    "coordinates": [   144.88676230505638,
                    -37.79988542150189]
                }
            },
            {
                "type": "Feature",
                "properties": {
                    "title": "Footscray Community Arts Centre"
                },
                "geometry": {
                    "type": "Point",
                    "coordinates": [144.907296,-37.803086]
                }
            },
            {
                "type": "Feature",
                "properties": {
                    "title": "Heavenly Queen Temple"
                },
                "geometry": {
                    "type": "Point",
                    "coordinates": [ 144.91420397752387,
                    -37.798946084948234]
                }
            },
            {
                "type": "Feature",
                "properties": {
                    "title": "Footscray Park"
                },
                "geometry": {
                    "type": "Point",
                    "coordinates": [144.905010, -37.793658]
                }
            }
        ]
    }


